[{ "id": "55de8b712ba7b30d8c8347df", "type": "Feature", "geometry": {  "coordinates": [-74.139182036742568,  4.6984080965964763],  "type": "Point" }, "properties": {  "name": "Gate 43",  "aliases": [],  "categories": {   "maiN_TERMINAL": "Terminal 1"  },  "floor": "2",  "floorName": "2",  "building": "1",  "venue": "BOG",  "type": "Gate" }},{ "id": "55de8b1c2ba7b30d8c8347de", "type": "Feature", "geometry": {  "coordinates": [-74.139589732512832,  4.6987449191970789],  "type": "Point" }, "properties": {  "name": "Gate 40 - 41 - 42",  "aliases": ["Gate 40",  "Gate 41",  "Gate 42"],  "categories": {   "maiN_TERMINAL": "Terminal 1"  },  "floor": "2",  "floorName": "2",  "building": "1",  "venue": "BOG",  "type": "Gate" }},{ "id": "55de8bfa2ba7b30d8c8347e0", "type": "Feature", "geometry": {  "coordinates": [-74.138758247718215,  4.6981060253956013],  "type": "Point" }, "properties": {  "name": "Gate 44 - 45 - 46",  "aliases": ["Gate 44",  "Gate 45",  "Gate 46"],  "categories": {   "maiN_TERMINAL": "Terminal 1"  },  "floor": "2",  "floorName": "2",  "building": "1",  "venue": "BOG",  "type": "Gate" }},{ "id": "55de87522ba7b30d8c8347d7", "type": "Feature", "geometry": {  "coordinates": [-74.139987956732512,  4.6990977807945766],  "type": "Point" }, "properties": {  "name": "Gate 36 - 37 - 38",  "aliases": ["Gate 36",  "Gate 37",  "Gate 38"],  "categories": {   "maiN_TERMINAL": "Terminal 1"  },  "floor": "2",  "floorName": "2",  "building": "1",  "venue": "BOG",  "type": "Gate" }},{ "id": "55e88d25c1843a0ebccadb8b", "type": "Feature", "geometry": {  "coordinates": [-74.141242476180253,  4.6991031271810462],  "type": "Point" }, "properties": {  "name": "Elevator to VIP Lounges LAN",  "aliases": [],  "categories": {   "internationaL_CONCOURSE": "International Concourse",   "maiN_TERMINAL": "Terminal 1",   "restricted": "Passengers Only"  },  "floor": "2",  "floorName": "2",  "building": "1",  "venue": "BOG",  "type": "Elevator" }},{ "id": "55e88b4bc1843a0ebccadb89", "type": "Feature", "geometry": {  "coordinates": [-74.141398044303,  4.6991993621304511],  "type": "Point" }, "properties": {  "name": "Escalators International Connections Level M1 to 2",  "aliases": [],  "categories": {   "internationaL_CONCOURSE": "International Concourse",   "maiN_TERMINAL": "Terminal 1",   "restricted": "Passengers Only"  },  "floor": "2",  "floorName": "2",  "building": "1",  "venue": "BOG",  "type": "Escalator" }},{ "id": "55e4edfc2ba7b30a181c4b38", "type": "Feature", "geometry": {  "coordinates": [-74.141794026381831,  4.6984789362635331],  "type": "Point" }, "properties": {  "name": "LAN",  "aliases": [],  "categories": {   "maiN_TERMINAL": "Terminal 1",   "public": "Public Area"  },  "floor": "2",  "floorName": "2",  "building": "1",  "venue": "BOG",  "type": "Services" }},{ "id": "55e89953c1843a0ebccadb94", "type": "Feature", "geometry": {  "coordinates": [-74.141046004369855,  4.698759621767211],  "type": "Point" }, "properties": {  "name": "DIAN",  "aliases": [],  "categories": {   "public": "Public Area",   "maiN_TERMINAL": "Terminal 1"  },  "floor": "2",  "floorName": "2",  "building": "1",  "venue": "BOG",  "type": "Office" }},{ "id": "55e89ab3c1843a0ebccadb95", "type": "Feature", "geometry": {  "coordinates": [-74.141980754211545,  4.6995288330718781],  "type": "Point" }, "properties": {  "name": "Restrooms Imaginarium - Swing Gates",  "aliases": [],  "categories": {   "maiN_TERMINAL": "Terminal 1",   "restricted": "Passengers Only",   "swinG_GATES": "Swing Gates"  },  "floor": "2",  "floorName": "2",  "building": "1",  "venue": "BOG",  "type": "Toilet" }},{ "id": "55e8957ec1843a0ebccadb8f", "type": "Feature", "geometry": {  "coordinates": [-74.13996038027102,  4.6983800280390264],  "type": "Point" }, "properties": {  "name": "Public Phone Gate 43",  "aliases": [],  "categories": {   "internationaL_CONCOURSE": "International Concourse",   "restricted": "Passengers Only",   "maiN_TERMINAL": "Terminal 1"  },  "floor": "2",  "floorName": "2",  "building": "1",  "venue": "BOG",  "type": "Phone" }},{ "id": "55e8964ec1843a0ebccadb90", "type": "Feature", "geometry": {  "coordinates": [-74.14053839631373,  4.6985918787896006],  "type": "Point" }, "properties": {  "name": "Restrooms Gates 36-37-38",  "aliases": [],  "categories": {   "internationaL_CONCOURSE": "International Concourse",   "restricted": "Passengers Only",   "maiN_TERMINAL": "Terminal 1"  },  "floor": "2",  "floorName": "2",  "building": "1",  "venue": "BOG",  "type": "Toilet" }},{ "id": "55e88c81c1843a0ebccadb8a", "type": "Feature", "geometry": {  "coordinates": [-74.141302825882974,  4.69915191295568],  "type": "Point" }, "properties": {  "name": "Stairs to VIP Lounge: LATAM",  "aliases": [],  "categories": {   "internationaL_CONCOURSE": "International Concourse",   "maiN_TERMINAL": "Terminal 1",   "restricted": "Passengers Only"  },  "floor": "2",  "floorName": "2",  "building": "1",  "venue": "BOG",  "type": "Stairs" }},{ "id": "55e898d2c1843a0ebccadb93", "type": "Feature", "geometry": {  "coordinates": [-74.14161060936749,  4.6985176976193026],  "type": "Point" }, "properties": {  "name": "Elevator Entrance 4 to Level 2 to 1",  "aliases": [],  "categories": {   "maiN_TERMINAL": "Terminal 1",   "public": "Public Area"  },  "floor": "2",  "floorName": "2",  "building": "1",  "venue": "BOG",  "type": "Elevator" }},{ "id": "55e8989ec1843a0ebccadb92", "type": "Feature", "geometry": {  "coordinates": [-74.141302825883031,  4.6985624736419576],  "type": "Point" }, "properties": {  "name": "Elevator Entrance 5 to Level 2 to 1",  "aliases": [],  "categories": {   "maiN_TERMINAL": "Terminal 1",   "public": "Public Area"  },  "floor": "2",  "floorName": "2",  "building": "1",  "venue": "BOG",  "type": "Elevator" }},{ "id": "56032e3c00649209e04e2719", "type": "Feature", "geometry": {  "coordinates": [-74.14087797515441,  4.6988692227385638],  "type": "Point" }, "properties": {  "name": "Emeraldme",  "aliases": [],  "categories": {   "internationaL_CONCOURSE": "International Concourse",   "restricted": "Passengers Only",   "maiN_TERMINAL": "Terminal 1"  },  "floor": "2",  "floorName": "2",  "building": "1",  "venue": "BOG",  "type": "Shop" }},{ "id": "56032c2100649209e04e2718", "type": "Feature", "geometry": {  "coordinates": [-74.142041704634437,  4.69872687513331],  "type": "Point" }, "properties": {  "name": "iemark",  "aliases": [],  "categories": {   "maiN_TERMINAL": "Terminal 1",   "public": "Public Area"  },  "floor": "2",  "floorName": "2",  "building": "1",  "venue": "BOG",  "type": "Shop" }},{ "id": "565366320064920bd0ef1b5d", "type": "Feature", "geometry": {  "coordinates": [-74.141466440632939,  4.6987235336399795],  "type": "Point" }, "properties": {  "name": "Info Desk",  "aliases": [],  "categories": {   "maiN_TERMINAL": "Terminal 1",   "public": "Public Area"  },  "floor": "2",  "floorName": "2",  "building": "1",  "venue": "BOG",  "type": "Info" }},{ "id": "56536cd80064920bd0ef1b5e", "type": "Feature", "geometry": {  "coordinates": [-74.141105404130542,  4.6989427355691991],  "type": "Point" }, "properties": {  "name": "Migración Colombia",  "aliases": [],  "categories": {   "public": "Public Area",   "maiN_TERMINAL": "Terminal 1"  },  "floor": "2",  "floorName": "2",  "building": "1",  "venue": "BOG",  "type": "Office" }},{ "id": "56561eaf006492052016bcbc", "type": "Feature", "geometry": {  "coordinates": [-74.1418343922669,  4.6993711147501829],  "type": "Point" }, "properties": {  "name": "International Concourse",  "aliases": [],  "categories": {   "restricted": "Passengers Only",   "internationaL_CONCOURSE": "International Concourse",   "maiN_TERMINAL": "Terminal 1"  },  "floor": "2",  "floorName": "2",  "building": "1",  "venue": "BOG",  "type": "Area Labels" }},{ "id": "565384550064920bd0ef1b5f", "type": "Feature", "geometry": {  "coordinates": [-74.141178494326141,  4.6988384810017072],  "type": "Point" }, "properties": {  "name": "Policia Nacional",  "aliases": [],  "categories": {   "maiN_TERMINAL": "Terminal 1",   "public": "Public Area"  },  "floor": "2",  "floorName": "2",  "building": "1",  "venue": "BOG",  "type": "Office" }},{ "id": "565699100064920ed0b9229c", "type": "Feature", "geometry": {  "coordinates": [-74.140919940546155,  4.6982136215684429],  "type": "Point" }, "properties": {  "name": "Puerta 6 (Piso 2)",  "aliases": [],  "categories": {   "maiN_TERMINAL": "Terminal 1",   "public": "Public Area"  },  "floor": "2",  "floorName": "2",  "building": "1",  "venue": "BOG",  "type": "Entrance6" }},{ "id": "56539f2a0064920bd0ef1b61", "type": "Feature", "geometry": {  "coordinates": [-74.141031643484837,  4.6984174527820217],  "type": "Point" }, "properties": {  "name": "Cajeros",  "aliases": [],  "categories": {   "maiN_TERMINAL": "Terminal 1",   "public": "Public Area"  },  "floor": "2",  "floorName": "2",  "building": "1",  "venue": "BOG",  "type": "ATM" }},{ "id": "56561d6b006492052016bcba", "type": "Feature", "geometry": {  "coordinates": [-74.1407253405851,  4.6984094331943531],  "type": "Point" }, "properties": {  "name": "International Check-In",  "aliases": [],  "categories": {   "maiN_TERMINAL": "Terminal 1",   "public": "Public Area"  },  "floor": "2",  "floorName": "2",  "building": "1",  "venue": "BOG",  "type": "Area Labels" }},{ "id": "567acde700649206ec52f585", "type": "Feature", "geometry": {  "coordinates": [-74.140655463547773,  4.6985190342170275],  "type": "Point" }, "properties": {  "name": "Oficina Administrativa",  "aliases": [],  "categories": {   "maiN_TERMINAL": "Terminal 1",   "public": "Public Area"  },  "floor": "2",  "floorName": "2",  "building": "1",  "venue": "BOG",  "type": "Office" }},{ "id": "567ad12f00649206ec52f588", "type": "Feature", "geometry": {  "coordinates": [-74.140931060483183,  4.6991071369708735],  "type": "Point" }, "properties": {  "name": "Teléfono Público Britt Shop",  "aliases": [],  "categories": {   "internationaL_CONCOURSE": "International Concourse",   "maiN_TERMINAL": "Terminal 1",   "restricted": "Passengers Only"  },  "floor": "2",  "floorName": "2",  "building": "1",  "venue": "BOG",  "type": "Phone" }},{ "id": "567ade4d00649206ec52f58f", "type": "Feature", "geometry": {  "coordinates": [-74.141977122060325,  4.69942524689004],  "type": "Point" }, "properties": {  "name": "Tech Port",  "aliases": [],  "categories": {   "restricted": "Passengers Only",   "swinG_GATES": "Swing Gates",   "maiN_TERMINAL": "Terminal 1"  },  "floor": "2",  "floorName": "2",  "building": "1",  "venue": "BOG",  "type": "Shop" }},{ "id": "55915c2a423b7e1028888289", "type": "Feature", "geometry": {  "coordinates": [-74.14003567976232,  4.698047580680484],  "type": "Point" }, "properties": {  "name": "Back Office Avianca",  "aliases": [""],  "categories": {   "public": "Public Area",   "maiN_TERMINAL": "Terminal 1"  },  "floor": "2",  "floorName": "2",  "building": "1",  "venue": "BOG",  "type": "Office",  "roomId": "T1870BO-01" }},{ "id": "55915c2a423b7e1028888285", "type": "Feature", "geometry": {  "coordinates": [-74.1399592,  4.6980735],  "type": "Point" }, "properties": {  "name": "Back Office Tame",  "aliases": [""],  "categories": {   "public": "Public Area",   "maiN_TERMINAL": "Terminal 1"  },  "floor": "2",  "floorName": "2",  "building": "1",  "venue": "BOG",  "type": "Office",  "roomId": "T1870BO-02" }},{ "id": "55915c29423b7e102888827d", "type": "Feature", "geometry": {  "coordinates": [-74.1400014,  4.6981101],  "type": "Point" }, "properties": {  "name": "Back Office Spirit",  "aliases": [""],  "categories": {   "public": "Public Area",   "maiN_TERMINAL": "Terminal 1"  },  "floor": "2",  "floorName": "2",  "building": "1",  "venue": "BOG",  "type": "Office",  "roomId": "T1870BO-03" }},{ "id": "55915c2a423b7e102888828a", "type": "Feature", "geometry": {  "coordinates": [-74.140359658895534,  4.6983600072157792],  "type": "Point" }, "properties": {  "name": "Back Office Air France",  "aliases": [""],  "categories": {   "public": "Public Area",   "maiN_TERMINAL": "Terminal 1"  },  "floor": "2",  "floorName": "2",  "building": "1",  "venue": "BOG",  "type": "Office",  "roomId": "T1870BO-04" }},{ "id": "55915c29423b7e1028888278", "type": "Feature", "geometry": {  "coordinates": [-74.140366611656759,  4.6983162365981119],  "type": "Point" }, "properties": {  "name": "Back Office Iberia",  "aliases": [""],  "categories": {   "public": "Public Area",   "maiN_TERMINAL": "Terminal 1"  },  "floor": "2",  "floorName": "2",  "building": "1",  "venue": "BOG",  "type": "Office",  "roomId": "T1870BO-05" }},{ "id": "55915c29423b7e1028888279", "type": "Feature", "geometry": {  "coordinates": [-74.140381284044054,  4.6982864095322832],  "type": "Point" }, "properties": {  "name": "Back Office United",  "aliases": [""],  "categories": {   "public": "Public Area",   "maiN_TERMINAL": "Terminal 1"  },  "floor": "2",  "floorName": "2",  "building": "1",  "venue": "BOG",  "type": "Office",  "roomId": "T1870BO-06" }},{ "id": "55915c29423b7e102888827f", "type": "Feature", "geometry": {  "coordinates": [-74.140463876686454,  4.6984677000000046],  "type": "Point" }, "properties": {  "name": "Back Office American Airlines",  "aliases": [""],  "categories": {   "public": "Public Area",   "maiN_TERMINAL": "Terminal 1"  },  "floor": "2",  "floorName": "2",  "building": "1",  "venue": "BOG",  "type": "Office",  "roomId": "T1870BO-07" }},{ "id": "55915c29423b7e1028888276", "type": "Feature", "geometry": {  "coordinates": [-74.1405069,  4.6984391],  "type": "Point" }, "properties": {  "name": "Back Office Lufthansa",  "aliases": [""],  "categories": {   "public": "Public Area",   "maiN_TERMINAL": "Terminal 1"  },  "floor": "2",  "floorName": "2",  "building": "1",  "venue": "BOG",  "type": "Office",  "roomId": "T1870BO-08" }},{ "id": "55915c29423b7e102888827e", "type": "Feature", "geometry": {  "coordinates": [-74.140464582209,  4.6984096097938375],  "type": "Point" }, "properties": {  "name": "Back Office DGS",  "aliases": [""],  "categories": {   "public": "Public Area",   "maiN_TERMINAL": "Terminal 1"  },  "floor": "2",  "floorName": "2",  "building": "1",  "venue": "BOG",  "type": "Office",  "roomId": "T1870BO-08A" }},{ "id": "55915c29423b7e1028888275", "type": "Feature", "geometry": {  "coordinates": [-74.14051336011886,  4.69838345103042],  "type": "Point" }, "properties": {  "name": "Back Office Avianca",  "aliases": [""],  "categories": {   "public": "Public Area",   "maiN_TERMINAL": "Terminal 1"  },  "floor": "2",  "floorName": "2",  "building": "1",  "venue": "BOG",  "type": "Office",  "roomId": "T1870BO-09" }},{ "id": "55915c2a423b7e1028888288", "type": "Feature", "geometry": {  "coordinates": [-74.140614828836078,  4.6984589463913959],  "type": "Point" }, "properties": {  "name": "Back Office Tap",  "aliases": [""],  "categories": {   "public": "Public Area",   "maiN_TERMINAL": "Terminal 1"  },  "floor": "2",  "floorName": "2",  "building": "1",  "venue": "BOG",  "type": "Office",  "roomId": "T1870BO-10" }},{ "id": "55915c29423b7e1028888273", "type": "Feature", "geometry": {  "coordinates": [-74.1407433,  4.6985582],  "type": "Point" }, "properties": {  "name": "Back Office Interjet",  "aliases": [""],  "categories": {   "public": "Public Area",   "maiN_TERMINAL": "Terminal 1"  },  "floor": "2",  "floorName": "2",  "building": "1",  "venue": "BOG",  "type": "Office",  "roomId": "T1870BO-12" }},{ "id": "55915c29423b7e1028888282", "type": "Feature", "geometry": {  "coordinates": [-74.140799387731477,  4.6986127365975419],  "type": "Point" }, "properties": {  "name": "Back Office Air Canada",  "aliases": [""],  "categories": {   "public": "Public Area",   "maiN_TERMINAL": "Terminal 1"  },  "floor": "2",  "floorName": "2",  "building": "1",  "venue": "BOG",  "type": "Office",  "roomId": "T1870BO-13" }},{ "id": "55915c29423b7e1028888280", "type": "Feature", "geometry": {  "coordinates": [-74.140786381597309,  4.6986583682987026],  "type": "Point" }, "properties": {  "name": "Back Office Aeroméxico",  "aliases": [""],  "categories": {   "public": "Public Area",   "maiN_TERMINAL": "Terminal 1"  },  "floor": "2",  "floorName": "2",  "building": "1",  "venue": "BOG",  "type": "Office",  "roomId": "T1870BO-14" }},{ "id": "55915c2b423b7e10288882a0", "type": "Feature", "geometry": {  "coordinates": [-74.141810559507178,  4.6992051503816628],  "type": "Point" }, "properties": {  "name": "Attenza",  "aliases": [""],  "categories": {   "restricted": "Passengers Only",   "internationaL_CONCOURSE": "International Concourse",   "maiN_TERMINAL": "Terminal 1"  },  "floor": "2",  "floorName": "2",  "building": "1",  "venue": "BOG",  "type": "Shop",  "roomId": "T1870DUTY-FREE-2" }},{ "id": "55915c2c423b7e10288882c9", "type": "Feature", "geometry": {  "coordinates": [-74.1407145,  4.6987345],  "type": "Point" }, "properties": {  "name": "Juan Valdez",  "aliases": [""],  "categories": {   "internationaL_CONCOURSE": "International Concourse",   "restricted": "Passengers Only",   "maiN_TERMINAL": "Terminal 1"  },  "floor": "2",  "floorName": "2",  "building": "1",  "venue": "BOG",  "type": "Food",  "roomId": "T1870FNB-1" }},{ "id": "55915c2d423b7e10288882d2", "type": "Feature", "geometry": {  "coordinates": [-74.141322893254028,  4.6992218855424754],  "type": "Point" }, "properties": {  "name": "Xue Café",  "aliases": [""],  "categories": {   "internationaL_CONCOURSE": "International Concourse",   "restricted": "Passengers Only",   "maiN_TERMINAL": "Terminal 1"  },  "floor": "2",  "floorName": "2",  "building": "1",  "venue": "BOG",  "type": "Food",  "roomId": "T1870FNB-114" }},{ "id": "55915c2e423b7e10288882e4", "type": "Feature", "geometry": {  "coordinates": [-74.141921468105465,  4.6988686410150358],  "type": "Point" }, "properties": {  "name": "Kokorico",  "aliases": [""],  "categories": {   "public": "Public Area",   "maiN_TERMINAL": "Terminal 1"  },  "floor": "2",  "floorName": "2",  "building": "1",  "venue": "BOG",  "type": "Food",  "roomId": "T1870FNB-3" }},{ "id": "55915c2f423b7e1028888302", "type": "Feature", "geometry": {  "coordinates": [-74.140749088954919,  4.6982283121111674],  "type": "Point" }, "properties": {  "name": "Front Office Avianca",  "aliases": [""],  "categories": {   "maiN_TERMINAL": "Terminal 1",   "public": "Public Area"  },  "floor": "2",  "floorName": "2",  "building": "1",  "venue": "BOG",  "type": "Services",  "roomId": "T1870FO-02" }},{ "id": "55915c2f423b7e102888830a", "type": "Feature", "geometry": {  "coordinates": [-74.140697529447777,  4.6981907048975362],  "type": "Point" }, "properties": {  "name": "Front Office Aerogal",  "aliases": [""],  "categories": {   "maiN_TERMINAL": "Terminal 1",   "public": "Public Area"  },  "floor": "2",  "floorName": "2",  "building": "1",  "venue": "BOG",  "type": "Services",  "roomId": "T1870FO-05" }},{ "id": "55915c2f423b7e1028888312", "type": "Feature", "geometry": {  "coordinates": [-74.140675929447752,  4.6981719317007924],  "type": "Point" }, "properties": {  "name": "Front Office American",  "aliases": [""],  "categories": {   "maiN_TERMINAL": "Terminal 1",   "public": "Public Area"  },  "floor": "2",  "floorName": "2",  "building": "1",  "venue": "BOG",  "type": "Services",  "roomId": "T1870FO-06" }},{ "id": "55915c2f423b7e1028888303", "type": "Feature", "geometry": {  "coordinates": [-74.14065332944773,  4.6981561682992021],  "type": "Point" }, "properties": {  "name": "Front Office Avior",  "aliases": [""],  "categories": {     },  "floor": "2",  "floorName": "2",  "building": "1",  "venue": "BOG",  "type": "Services",  "roomId": "T1870FO-07" }},{ "id": "55915c2f423b7e102888830b", "type": "Feature", "geometry": {  "coordinates": [-74.140532387731582,  4.6980633146937487],  "type": "Point" }, "properties": {  "name": "AEROCIVIL",  "aliases": [""],  "categories": {   "maiN_TERMINAL": "Terminal 1",   "public": "Public Area"  },  "floor": "2",  "floorName": "2",  "building": "1",  "venue": "BOG",  "type": "Services",  "roomId": "T1870FO-09" }},{ "id": "55915c2e423b7e10288882f8", "type": "Feature", "geometry": {  "coordinates": [-74.140490000611635,  4.6980329804080458],  "type": "Point" }, "properties": {  "name": "Front Office OPAIN",  "aliases": [""],  "categories": {   "maiN_TERMINAL": "Terminal 1",   "public": "Public Area"  },  "floor": "2",  "floorName": "2",  "building": "1",  "venue": "BOG",  "type": "Services",  "roomId": "T1870FO-10" }},{ "id": "55915c2f423b7e1028888301", "type": "Feature", "geometry": {  "coordinates": [-74.140427071163913,  4.6979852804075195],  "type": "Point" }, "properties": {  "name": "Front Office COPA",  "aliases": [""],  "categories": {   "maiN_TERMINAL": "Terminal 1",   "public": "Public Area"  },  "floor": "2",  "floorName": "2",  "building": "1",  "venue": "BOG",  "type": "Services",  "roomId": "T1870FO-12" }},{ "id": "55915c2b423b7e102888829e", "type": "Feature", "geometry": {  "coordinates": [-74.1403934,  4.6979601],  "type": "Point" }, "properties": {  "name": "Front Office Iberia",  "aliases": [""],  "categories": {   "public": "Public Area",   "maiN_TERMINAL": "Terminal 1"  },  "floor": "2",  "floorName": "2",  "building": "1",  "venue": "BOG",  "type": "Services",  "roomId": "T1870FO-14" }},{ "id": "55915c2c423b7e10288882bf", "type": "Feature", "geometry": {  "coordinates": [-74.140371,  4.6979431],  "type": "Point" }, "properties": {  "name": "DELTA",  "aliases": [""],  "categories": {   "public": "Public Area",   "maiN_TERMINAL": "Terminal 1"  },  "floor": "2",  "floorName": "2",  "building": "1",  "venue": "BOG",  "type": "Services",  "roomId": "T1870FO-15" }},{ "id": "55915c2b423b7e10288882a4", "type": "Feature", "geometry": {  "coordinates": [-74.1419101,  4.6983252],  "type": "Point" }, "properties": {  "name": "AVIANCA",  "aliases": [""],  "categories": {   "public": "Public Area",   "maiN_TERMINAL": "Terminal 1"  },  "floor": "2",  "floorName": "2",  "building": "1",  "venue": "BOG",  "type": "Services",  "roomId": "T1870FO-24" }},{ "id": "55915c2c423b7e10288882b5", "type": "Feature", "geometry": {  "coordinates": [-74.1420509,  4.6981394],  "type": "Point" }, "properties": {  "name": "Front Office Avianca",  "aliases": [""],  "categories": {   "public": "Public Area",   "maiN_TERMINAL": "Terminal 1"  },  "floor": "2",  "floorName": "2",  "building": "1",  "venue": "BOG",  "type": "Services",  "roomId": "T1870FO-27" }},{ "id": "55915c2e423b7e10288882f5", "type": "Feature", "geometry": {  "coordinates": [-74.1416696,  4.6985998],  "type": "Point" }, "properties": {  "name": "Dulces Tipicos",  "aliases": [""],  "categories": {   "maiN_TERMINAL": "Terminal 1",   "public": "Public Area"  },  "floor": "2",  "floorName": "2",  "building": "1",  "venue": "BOG",  "type": "Shop",  "roomId": "T1870L-116" }},{ "id": "55915c2c423b7e10288882b4", "type": "Feature", "geometry": {  "coordinates": [-74.1419513,  4.6992574],  "type": "Point" }, "properties": {  "name": "Mundo Delicias",  "aliases": [""],  "categories": {   "restricted": "Passengers Only",   "swinG_GATES": "Swing Gates",   "maiN_TERMINAL": "Terminal 1"  },  "floor": "2",  "floorName": "2",  "building": "1",  "venue": "BOG",  "type": "Food",  "roomId": "T1870L76" }},{ "id": "55915c2a423b7e102888828d", "type": "Feature", "geometry": {  "coordinates": [-74.1419355,  4.6991735],  "type": "Point" }, "properties": {  "name": "The Third Pole",  "aliases": [""],  "categories": {   "restricted": "Passengers Only",   "swinG_GATES": "Swing Gates",   "maiN_TERMINAL": "Terminal 1"  },  "floor": "2",  "floorName": "2",  "building": "1",  "venue": "BOG",  "type": "Shop",  "roomId": "T1870L77" }},{ "id": "55915c2b423b7e10288882aa", "type": "Feature", "geometry": {  "coordinates": [-74.1419669,  4.6993559],  "type": "Point" }, "properties": {  "name": "Azulu ",  "aliases": [""],  "categories": {   "restricted": "Passengers Only",   "swinG_GATES": "Swing Gates",   "maiN_TERMINAL": "Terminal 1"  },  "floor": "2",  "floorName": "2",  "building": "1",  "venue": "BOG",  "type": "Shop",  "roomId": "T1870L80" }},{ "id": "55915c2e423b7e10288882ed", "type": "Feature", "geometry": {  "coordinates": [-74.14196,  4.6993129],  "type": "Point" }, "properties": {  "name": "The Cookie Company",  "aliases": [""],  "categories": {   "restricted": "Passengers Only",   "swinG_GATES": "Swing Gates",   "maiN_TERMINAL": "Terminal 1"  },  "floor": "2",  "floorName": "2",  "building": "1",  "venue": "BOG",  "type": "Food",  "roomId": "T1870L82" }},{ "id": "55915c2d423b7e10288882d0", "type": "Feature", "geometry": {  "coordinates": [-74.1419717,  4.6993869],  "type": "Point" }, "properties": {  "name": "Café Don Pedro",  "aliases": [""],  "categories": {   "restricted": "Passengers Only",   "swinG_GATES": "Swing Gates",   "maiN_TERMINAL": "Terminal 1"  },  "floor": "2",  "floorName": "2",  "building": "1",  "venue": "BOG",  "type": "Food",  "roomId": "T1870L83A" }},{ "id": "55915c2b423b7e10288882b0", "type": "Feature", "geometry": {  "coordinates": [-74.141124105522522,  4.698448719587236],  "type": "Point" }, "properties": {  "name": "Britt Shop",  "aliases": [""],  "categories": {   "public": "Public Area",   "maiN_TERMINAL": "Terminal 1"  },  "floor": "2",  "floorName": "2",  "building": "1",  "venue": "BOG",  "type": "Shop",  "roomId": "T1870RETAIL-14A" }},{ "id": "55915c2a423b7e1028888296", "type": "Feature", "geometry": {  "coordinates": [-74.1409797,  4.698338],  "type": "Point" }, "properties": {  "name": "Juan Valdez",  "aliases": [""],  "categories": {   "maiN_TERMINAL": "Terminal 1",   "public": "Public Area"  },  "floor": "2",  "floorName": "2",  "building": "1",  "venue": "BOG",  "type": "Food",  "roomId": "T1870RETAIL-14B" }},{ "id": "55915c2c423b7e10288882bb", "type": "Feature", "geometry": {  "coordinates": [-74.141053797553241,  4.69900510280046],  "type": "Point" }, "properties": {  "name": "Britt Shop",  "aliases": [""],  "categories": {   "internationaL_CONCOURSE": "International Concourse",   "restricted": "Passengers Only",   "maiN_TERMINAL": "Terminal 1"  },  "floor": "2",  "floorName": "2",  "building": "1",  "venue": "BOG",  "type": "Shop",  "roomId": "T1870RETAIL-2" }},{ "id": "55915c2c423b7e10288882b3", "type": "Feature", "geometry": {  "coordinates": [-74.1408151,  4.698837],  "type": "Point" }, "properties": {  "name": "Aerocambios",  "aliases": [""],  "categories": {   "internationaL_CONCOURSE": "International Concourse",   "restricted": "Passengers Only",   "maiN_TERMINAL": "Terminal 1"  },  "floor": "2",  "floorName": "2",  "building": "1",  "venue": "BOG",  "type": "Shop",  "roomId": "T1870RETAIL-3" }},{ "id": "55915c2e423b7e10288882ec", "type": "Feature", "geometry": {  "coordinates": [-74.1405775,  4.6986616],  "type": "Point" }, "properties": {  "name": "El Market",  "aliases": [""],  "categories": {   "internationaL_CONCOURSE": "International Concourse",   "restricted": "Passengers Only",   "maiN_TERMINAL": "Terminal 1"  },  "floor": "2",  "floorName": "2",  "building": "1",  "venue": "BOG",  "type": "Shop",  "roomId": "T1870RETAIL-4" }},{ "id": "55915c2a423b7e102888829a", "type": "Feature", "geometry": {  "coordinates": [-74.1404515,  4.6985665],  "type": "Point" }, "properties": {  "name": "Nora Lozza",  "aliases": [""],  "categories": {   "internationaL_CONCOURSE": "International Concourse",   "restricted": "Passengers Only",   "maiN_TERMINAL": "Terminal 1"  },  "floor": "2",  "floorName": "2",  "building": "1",  "venue": "BOG",  "type": "Shop",  "roomId": "T1870RETAIL-5" }},{ "id": "55915c2e423b7e10288882e7", "type": "Feature", "geometry": {  "coordinates": [-74.1403144,  4.6984342],  "type": "Point" }, "properties": {  "name": "Mario Hernández",  "aliases": [""],  "categories": {   "internationaL_CONCOURSE": "International Concourse",   "restricted": "Passengers Only",   "maiN_TERMINAL": "Terminal 1"  },  "floor": "2",  "floorName": "2",  "building": "1",  "venue": "BOG",  "type": "Shop",  "roomId": "T1870RETAIL-6A" }},{ "id": "55915c2c423b7e10288882c3", "type": "Feature", "geometry": {  "coordinates": [-74.1401874,  4.6983385],  "type": "Point" }, "properties": {  "name": "Veléz",  "aliases": [""],  "categories": {   "internationaL_CONCOURSE": "International Concourse",   "restricted": "Passengers Only",   "maiN_TERMINAL": "Terminal 1"  },  "floor": "2",  "floorName": "2",  "building": "1",  "venue": "BOG",  "type": "Shop",  "roomId": "T1870RETAIL-6B" }},{ "id": "55915c2d423b7e10288882d3", "type": "Feature", "geometry": {  "coordinates": [-74.1399414,  4.6981848],  "type": "Point" }, "properties": {  "name": "L.A. Cano",  "aliases": [""],  "categories": {   "internationaL_CONCOURSE": "International Concourse",   "restricted": "Passengers Only",   "maiN_TERMINAL": "Terminal 1"  },  "floor": "2",  "floorName": "2",  "building": "1",  "venue": "BOG",  "type": "Shop",  "roomId": "T1870RETAIL-8" }},{ "id": "55915c2d423b7e10288882d6", "type": "Feature", "geometry": {  "coordinates": [-74.1397721,  4.6980274],  "type": "Point" }, "properties": {  "name": "Studio F",  "aliases": [""],  "categories": {   "internationaL_CONCOURSE": "International Concourse",   "restricted": "Passengers Only",   "maiN_TERMINAL": "Terminal 1"  },  "floor": "2",  "floorName": "2",  "building": "1",  "venue": "BOG",  "type": "Shop",  "roomId": "T1870RETAIL-9" }},{ "id": "55915c2e423b7e10288882f4", "type": "Feature", "geometry": {  "coordinates": [-74.1418693,  4.6982896],  "type": "Point" }, "properties": {  "name": "Sucurseal",  "aliases": [""],  "categories": {   "maiN_TERMINAL": "Terminal 1",   "public": "Public Area"  },  "floor": "2",  "floorName": "2",  "building": "1",  "venue": "BOG",  "type": "RoomGreen",  "roomId": "T1870SP-4" }},{ "id": "55915c2d423b7e10288882da", "type": "Feature", "geometry": {  "coordinates": [-74.1409287,  4.6982553],  "type": "Point" }, "properties": {  "name": "SecurSeal",  "aliases": [""],  "categories": {   "maiN_TERMINAL": "Terminal 1",   "public": "Public Area"  },  "floor": "2",  "floorName": "2",  "building": "1",  "venue": "BOG",  "type": "Small Stand",  "roomId": "T1870SP-5" }},{ "id": "55915c2d423b7e10288882de", "type": "Feature", "geometry": {  "coordinates": [-74.1406383,  4.6981294],  "type": "Point" }, "properties": {  "name": "SecurSeal",  "aliases": [""],  "categories": {   "maiN_TERMINAL": "Terminal 1",   "public": "Public Area"  },  "floor": "2",  "floorName": "2",  "building": "1",  "venue": "BOG",  "type": "Small Stand",  "roomId": "T1870SP-6" }},{ "id": "55915c36423b7e10288883b2", "type": "Feature", "geometry": {  "coordinates": [-74.14183644699574,  4.6988046780901271],  "type": "Point" }, "properties": {  "name": "Ascensor Crepes and Waffles",  "aliases": [""],  "categories": {   "public": "Public Area",   "maiN_TERMINAL": "Terminal 1"  },  "floor": "2",  "floorName": "",  "building": null,  "venue": "BOG",  "type": "Elevator",  "roomId": "EL-11" }},{ "id": "55915c33423b7e102888836f", "type": "Feature", "geometry": {  "coordinates": [-74.141267148132329,  4.69851329984314],  "type": "Point" }, "properties": {  "name": "Escaleras Eléctricas Puerta 5",  "aliases": [""],  "categories": {   "public": "Public Area",   "maiN_TERMINAL": "Terminal 1"  },  "floor": "2",  "floorName": "",  "building": null,  "venue": "BOG",  "type": "Escalator",  "roomId": "ES-5" }},{ "id": "55915c33423b7e1028888369", "type": "Feature", "geometry": {  "coordinates": [-74.141948429222111,  4.6980615296597348],  "type": "Point" }, "properties": {  "name": " - ",  "aliases": [""],  "categories": {   "public": "Public Area",   "maiN_TERMINAL": "Terminal 1"  },  "floor": "2",  "floorName": "",  "building": null,  "venue": "BOG",  "type": "Escalator",  "roomId": "ES-7" }},{ "id": "55915c34423b7e1028888380", "type": "Feature", "geometry": {  "coordinates": [-74.141847846384053,  4.6987705948611236],  "type": "Point" }, "properties": {  "name": "Escaleras Crepes and Waffles",  "aliases": [""],  "categories": {   "public": "Public Area",   "maiN_TERMINAL": "Terminal 1"  },  "floor": "2",  "floorName": "",  "building": null,  "venue": "BOG",  "type": "Stairs",  "roomId": "ST-12" }},{ "id": "55915c35423b7e1028888391", "type": "Feature", "geometry": {  "coordinates": [-74.140931201453213,  4.698624237446948],  "type": "Point" }, "properties": {  "name": " - ",  "aliases": [""],  "categories": {   "public": "Public Area",   "maiN_TERMINAL": "Terminal 1"  },  "floor": "2",  "floorName": "",  "building": null,  "venue": "BOG",  "type": "Phone",  "roomId": "T100TP-10" }},{ "id": "55915c30423b7e102888832a", "type": "Feature", "geometry": {  "coordinates": [-74.14178615557671,  4.69874653611023],  "type": "Point" }, "properties": {  "name": " - ",  "aliases": [""],  "categories": {   "public": "Public Area",   "maiN_TERMINAL": "Terminal 1"  },  "floor": "2",  "floorName": "",  "building": null,  "venue": "BOG",  "type": "Phone",  "roomId": "T100TP-11" }},{ "id": "55915c33423b7e1028888367", "type": "Feature", "geometry": {  "coordinates": [-74.141926300997682,  4.6983027856668933],  "type": "Point" }, "properties": {  "name": "Cruz Roja",  "aliases": [""],  "categories": {   "public": "Public Area",   "maiN_TERMINAL": "Terminal 1"  },  "floor": "2",  "floorName": "",  "building": null,  "venue": "BOG",  "type": "Services",  "roomId": "T1870CR" }},{ "id": "55915c38423b7e10288883de", "type": "Feature", "geometry": {  "coordinates": [-74.141017032141576,  4.6988955666927046],  "type": "Point" }, "properties": {  "name": "Oficina Hospital Fontibón",  "aliases": [""],  "categories": {   "public": "Public Area",   "maiN_TERMINAL": "Terminal 1"  },  "floor": "2",  "floorName": "",  "building": null,  "venue": "BOG",  "type": "Office",  "roomId": "T1870HF" }},{ "id": "55915c31423b7e1028888340", "type": "Feature", "geometry": {  "coordinates": [-74.1409479652595,  4.6986823794370869],  "type": "Point" }, "properties": {  "name": "Oficina Migración Colombia",  "aliases": [""],  "categories": {   "public": "Public Area",   "maiN_TERMINAL": "Terminal 1"  },  "floor": "2",  "floorName": "",  "building": null,  "venue": "BOG",  "type": "Office",  "roomId": "T1870MC" }},{ "id": "55915c31423b7e102888832f", "type": "Feature", "geometry": {  "coordinates": [-74.140991130734619,  4.69871350915986],  "type": "Point" }, "properties": {  "name": "Oficina Objetos Perdidos",  "aliases": [""],  "categories": {   "public": "Public Area",   "maiN_TERMINAL": "Terminal 1"  },  "floor": "2",  "floorName": "",  "building": null,  "venue": "BOG",  "type": "Office",  "roomId": "T1870OP" }},{ "id": "55915c31423b7e102888833b", "type": "Feature", "geometry": {  "coordinates": [-74.141873811604512,  4.6980826349210512],  "type": "Point" }, "properties": {  "name": " - ",  "aliases": [""],  "categories": {   "public": "Public Area",   "maiN_TERMINAL": "Terminal 1"  },  "floor": "2",  "floorName": "",  "building": null,  "venue": "BOG",  "type": "Entrance2",  "roomId": "T1870P2" }},{ "id": "55915c30423b7e1028888329", "type": "Feature", "geometry": {  "coordinates": [-74.141819683189283,  4.6981544232568595],  "type": "Point" }, "properties": {  "name": " - ",  "aliases": [""],  "categories": {   "public": "Public Area",   "maiN_TERMINAL": "Terminal 1"  },  "floor": "2",  "floorName": "",  "building": null,  "venue": "BOG",  "type": "Entrance3",  "roomId": "T1870P3" }},{ "id": "55915c32423b7e102888834f", "type": "Feature", "geometry": {  "coordinates": [-74.1416230250615,  4.69840876489544],  "type": "Point" }, "properties": {  "name": " - ",  "aliases": [""],  "categories": {   "public": "Public Area",   "maiN_TERMINAL": "Terminal 1"  },  "floor": "2",  "floorName": "",  "building": null,  "venue": "BOG",  "type": "Entrance4",  "roomId": "T1870P4" }},{ "id": "55915c37423b7e10288883c1", "type": "Feature", "geometry": {  "coordinates": [-74.141255748744015,  4.6984638457249135],  "type": "Point" }, "properties": {  "name": " - ",  "aliases": [""],  "categories": {   "public": "Public Area",   "maiN_TERMINAL": "Terminal 1"  },  "floor": "2",  "floorName": "",  "building": null,  "venue": "BOG",  "type": "Entrance5",  "roomId": "T1870P5" }},{ "id": "55915c34423b7e102888837a", "type": "Feature", "geometry": {  "coordinates": [-74.140654933924679,  4.6980167536049056],  "type": "Point" }, "properties": {  "name": " - ",  "aliases": [""],  "categories": {   "public": "Public Area",   "maiN_TERMINAL": "Terminal 1"  },  "floor": "2",  "floorName": "",  "building": null,  "venue": "BOG",  "type": "Entrance7",  "roomId": "T1870P7" }},{ "id": "55915c38423b7e10288883d9", "type": "Feature", "geometry": {  "coordinates": [-74.141113591666169,  4.6988013365971906],  "type": "Point" }, "properties": {  "name": "Policia Nacional",  "aliases": [""],  "categories": {   "public": "Public Area",   "maiN_TERMINAL": "Terminal 1"  },  "floor": "2",  "floorName": "",  "building": null,  "venue": "BOG",  "type": "Office",  "roomId": "T1870PN" }},{ "id": "55915c32423b7e1028888345", "type": "Feature", "geometry": {  "coordinates": [-74.140005168790822,  4.6981991993028851],  "type": "Point" }, "properties": {  "name": "Restrooms Gate 43",  "aliases": [""],  "categories": {   "maiN_TERMINAL": "Terminal 1",   "internationaL_CONCOURSE": "International Concourse",   "restricted": "Passengers Only"  },  "floor": "2",  "floorName": "",  "building": null,  "venue": "BOG",  "type": "Toilet",  "roomId": "T1870RR-4" }},{ "id": "55915c33423b7e1028888363", "type": "Feature", "geometry": {  "coordinates": [-74.14091443764687,  4.6987852974307085],  "type": "Point" }, "properties": {  "name": " - ",  "aliases": [""],  "categories": {   "public": "Public Area",   "maiN_TERMINAL": "Terminal 1"  },  "floor": "2",  "floorName": "",  "building": null,  "venue": "BOG",  "type": "Toilet",  "roomId": "T1870RR-6" }}]
